City_ID,City,Lat,Lng,Max Temp,Humidity,Cloudiness,Wind Speed,Country,Date
0,jiagedaqi,50.4167,124.1167,21.2,43,73,1.25,CN,1693969213
1,puerto natales,-51.7236,-72.4875,-1.59,85,64,2.26,CL,1693968964
2,sitka,57.0531,-135.33,13.35,82,62,1.23,US,1693969214
3,balkashino,52.5167,68.7667,8.93,75,99,4.56,KZ,1693969214
4,edinburgh of the seven seas,-37.0676,-12.3116,14.37,85,100,15.3,SH,1693969215
5,santa elena de uairen,4.6167,-61.1333,21.64,62,91,1.91,VE,1693969216
6,port mathurin,-19.6833,63.4167,22.84,72,53,7.94,MU,1693969216
7,waitangi,-43.9535,-176.5597,13.23,81,100,3.58,NZ,1693969217
8,port-aux-francais,-49.35,70.2167,2.99,82,98,13.28,TF,1693969218
9,grytviken,-54.2811,-36.5092,-8.24,89,85,7.24,GS,1693969218
10,cidreira,-30.1811,-50.2056,9.98,90,0,0.5,BR,1693969219
11,saipan,15.1355,145.701,30.39,79,75,4.63,MP,1693969219
12,albany,42.6001,-73.9662,24.4,95,100,2.29,US,1693969220
13,naranjal,-2.6667,-79.6167,22.71,86,15,2.2,EC,1693969222
14,chandler,33.3062,-111.8412,36.49,19,0,2.06,US,1693968686
15,sarkand,45.41,79.9186,19.02,28,7,1.36,KZ,1693969223
16,port moresby,-9.4431,147.1797,28.68,70,75,7.72,PG,1693969223
17,novodvinsk,64.4165,40.8122,9.71,97,100,2.31,RU,1693969224
18,stanley,54.868,-1.6985,15.29,94,100,1.03,GB,1693969224
19,puerto ayora,-0.7393,-90.3518,23.64,91,42,3.13,EC,1693969224
20,longyearbyen,78.2186,15.6401,3.91,100,75,0.0,SJ,1693969225
21,montepuez,-13.1256,38.9997,17.83,97,21,1.12,MZ,1693969225
22,carnarvon,-24.8667,113.6333,19.7,61,14,9.43,AU,1693969227
23,hermanus,-34.4187,19.2345,7.56,85,0,4.04,ZA,1693969227
24,tura,25.5198,90.2201,29.36,73,94,1.25,IN,1693969228
25,adamstown,-25.066,-130.1015,18.19,77,100,8.88,PN,1693969229
26,lincoln,40.8,-96.667,19.08,70,0,3.13,US,1693969120
27,mount pearl,47.5166,-52.7813,15.08,97,20,1.03,CA,1693969229
28,igarka,67.4667,86.5833,9.27,53,0,2.66,RU,1693969231
29,invercargill,-46.4,168.35,16.01,63,100,2.41,NZ,1693968642
30,houghton,47.1219,-88.569,22.08,88,100,8.75,US,1693969233
31,kudahuvadhoo,2.6708,72.8944,27.84,75,94,4.32,MV,1693969234
32,saint-pierre,-21.3393,55.4781,19.82,45,0,4.12,RE,1693969235
33,bethel,41.3712,-73.414,26.08,86,0,1.54,US,1693969110
34,bandon,51.7469,-8.7425,17.77,95,76,3.16,IE,1693969236
35,xining,36.6167,101.7667,21.77,51,4,0.81,CN,1693969237
36,nogliki,51.8333,143.1667,14.73,80,100,3.86,RU,1693969238
37,belyy yar,53.6039,91.3903,12.94,82,0,2.0,RU,1693969238
38,badger,64.8,-147.5333,15.07,82,100,1.54,US,1693969239
39,ulubey,40.8721,37.7588,18.13,88,96,1.1,TR,1693969239
40,port lincoln,-34.7333,135.8667,22.46,31,0,9.69,AU,1693969239
41,hawaiian paradise park,19.5933,-154.9731,27.8,75,99,2.93,US,1693969239
42,quellon,-43.1167,-73.6167,9.14,87,100,5.66,CL,1693969240
43,ponta delgada,37.7333,-25.6667,21.4,83,75,6.17,PT,1693969244
44,isafjordur,66.0755,-23.124,11.75,87,100,3.38,IS,1693969245
45,hood river,45.7054,-121.5215,21.59,58,0,2.68,US,1693969236
46,soe,-9.8607,124.284,29.16,28,4,2.05,ID,1693969245
47,jamestown,42.097,-79.2353,22.8,88,0,0.0,US,1693969242
48,bikenibeu village,1.3673,173.1241,31.98,66,20,2.57,KI,1693969246
49,medina,24.4686,39.6142,32.24,7,0,3.09,SA,1693969217
50,caleta olivia,-46.4393,-67.5281,6.59,85,98,9.99,AR,1693969246
51,port-vila,-17.7338,168.3219,25.78,73,100,7.2,VU,1693969247
52,ilulissat,69.2167,-51.1,5.01,100,100,2.06,GL,1693969247
53,ushuaia,-54.8,-68.3,-0.19,59,20,1.03,AR,1693969247
54,filiatra,37.15,21.5833,20.94,66,50,3.38,GR,1693969248
55,crane,31.3974,-102.3501,31.99,25,2,3.31,US,1693969248
56,sandnessjoen,66.0217,12.6316,11.29,71,100,7.66,NO,1693969248
57,polyarnyy,69.1989,33.4478,6.0,86,100,5.09,RU,1693969249
58,bengkulu,-3.8004,102.2655,28.17,61,90,3.23,ID,1693969249
59,san antonio de pale,-1.4014,5.6325,23.0,86,100,5.31,GQ,1693969249
60,wailua homesteads,22.0669,-159.378,28.24,79,61,2.24,US,1693969249
61,iwaki,37.05,140.8833,29.51,97,100,0.89,JP,1693969250
62,port elizabeth,-33.918,25.5701,11.16,62,0,5.66,ZA,1693969216
63,thompson,55.7435,-97.8558,8.09,87,75,1.54,CA,1693969250
64,acarau,-2.8856,-40.12,26.63,83,13,11.03,BR,1693969250
65,coquimbo,-29.9533,-71.3436,12.85,100,75,3.6,CL,1693968797
66,klyuchi,52.2667,79.1667,11.77,57,100,3.74,RU,1693969251
67,talnakh,69.4865,88.3972,5.67,57,11,1.03,RU,1693969251
68,olyokminsk,60.3736,120.4264,7.64,55,100,3.77,RU,1693969251
69,olonkinbyen,70.9221,-8.7187,6.61,85,100,10.25,SJ,1693969251
70,weno,7.4515,151.8468,28.98,73,59,4.78,FM,1693969252
71,borogontsy,62.6683,131.1683,11.95,70,100,3.37,RU,1693969252
72,island harbour,50.724,-1.2758,17.18,81,50,1.29,GB,1693969252
73,bachajon,17.0385,-92.1891,18.62,98,55,2.04,MX,1693969252
74,margaret river,-33.95,115.0667,13.75,56,6,10.65,AU,1693969252
75,dudinka,69.4058,86.1778,5.9,59,44,1.72,RU,1693969253
76,iqaluit,63.7506,-68.5145,1.85,87,75,3.6,CA,1693969253
77,avarua,-21.2078,-159.775,21.03,83,100,4.12,CK,1693969253
78,tiksi,71.6872,128.8694,2.92,84,100,9.57,RU,1693969254
79,chokwe,-24.5333,32.9833,21.21,74,60,7.88,MZ,1693969254
80,papatowai,-46.5619,169.4708,16.16,66,71,1.02,NZ,1693969254
81,hamilton,39.1834,-84.5333,27.65,75,75,4.12,US,1693968996
82,beira,-19.8436,34.8389,21.05,100,20,1.54,MZ,1693969255
83,lihue,21.9789,-159.3672,28.58,72,100,1.75,US,1693969255
84,sault ste. marie,46.5168,-84.3333,23.31,94,0,2.57,CA,1693968566
85,geraldton,-28.7667,114.6,18.23,59,100,7.72,AU,1693969255
86,imperatriz,-5.5264,-47.4917,25.65,31,0,0.77,BR,1693969256
87,utrik,11.2278,169.8474,28.47,70,100,4.74,MH,1693969256
88,yellowknife,62.456,-114.3525,12.29,73,75,1.54,CA,1693968987
89,savastepe,39.3832,27.6561,19.23,93,100,3.23,TR,1693969256
90,bilibino,68.0546,166.4372,2.43,71,100,1.63,RU,1693969256
91,slave lake,55.2834,-114.769,8.99,95,100,0.0,CA,1693969257
92,greenville,35.6127,-77.3663,26.74,93,40,0.0,US,1693969143
93,minas de marcona,-15.2119,-75.1103,16.52,72,36,0.52,PE,1693969257
94,sardinata,8.0829,-72.8007,29.82,74,18,1.96,CO,1693969258
95,clewiston,26.7542,-80.9337,26.67,74,73,3.96,US,1693969258
96,vila franca do campo,37.7167,-25.4333,21.23,85,49,6.61,PT,1693969258
97,blackmans bay,-43.0167,147.3167,15.29,56,100,3.2,AU,1693969259
98,afaahiti,-17.75,-149.2833,25.93,95,100,12.12,PF,1693969259
99,ghardaia,32.4909,3.6735,28.64,32,0,3.6,DZ,1693969259
100,abong mbang,3.9833,13.1833,18.97,99,93,0.72,CM,1693969259
101,rio grande,-32.035,-52.0986,5.53,83,0,1.54,BR,1693969260
102,riohacha,11.5444,-72.9072,29.38,77,89,9.62,CO,1693969263
103,north ward,-19.2454,146.8075,25.95,53,20,4.63,AU,1693969263
104,muisne,0.6,-80.0333,24.88,82,100,3.38,EC,1693969264
105,kasongo-lunda,-6.4667,16.8167,20.45,82,31,0.98,CD,1693969264
106,svetlyy,54.675,20.1347,14.03,91,0,3.68,RU,1693969264
107,amahai,-3.3333,128.9167,26.16,81,82,4.37,ID,1693969265
108,waseca,44.0777,-93.5074,25.21,84,0,2.06,US,1693969266
109,nautanwa,27.4333,83.4167,30.09,64,99,0.74,IN,1693969266
110,ar ruways,24.1103,52.7306,31.17,67,6,1.77,AE,1693969266
111,codrington,-38.2667,141.9667,17.17,55,6,8.9,AU,1693969266
112,ancud,-41.8697,-73.8203,10.42,84,94,10.46,CL,1693969221
113,college,64.8569,-147.8028,15.11,83,100,1.54,US,1693969267
114,puerto madryn,-42.7692,-65.0385,9.01,80,100,7.67,AR,1693969037
115,sisimiut,66.9395,-53.6735,5.22,97,100,7.01,GL,1693969268
116,georgetown,5.4112,100.3354,29.41,81,20,2.06,MY,1693969101
117,greenland,43.0362,-70.8328,24.69,89,20,2.57,US,1693969269
118,mudgee,-32.5943,149.5871,19.88,20,0,2.64,AU,1693969269
119,salym,60.0625,71.4789,9.02,68,89,3.87,RU,1693969270
120,key west,24.5557,-81.7826,30.0,72,100,5.66,US,1693969110
121,keflavik,64.0049,-22.5624,11.95,100,100,10.29,IS,1693969207
122,punta arenas,-53.15,-70.9167,0.62,86,19,6.63,CL,1693969271
123,pandan,14.0453,124.1694,30.91,67,88,0.36,PH,1693969271
124,atafu village,-8.5421,-172.5159,28.1,79,21,8.01,TK,1693969271
125,san blas,21.5167,-105.2667,28.94,85,29,0.79,MX,1693969272
126,ban houakhoua,20.2453,100.4547,24.84,92,100,0.35,LA,1693969272
127,st. john's,47.5649,-52.7093,15.54,97,20,1.03,CA,1693969272
128,horsham,51.064,-0.3272,18.68,85,0,0.51,GB,1693969272
129,allegan,42.5292,-85.8553,26.43,77,100,1.79,US,1693969249
130,petropavlovsk-kamchatsky,53.0452,158.6483,16.33,63,75,6.0,RU,1693969273
131,port blair,11.6667,92.75,30.02,79,75,7.2,IN,1693969238
132,holualoa,19.6228,-155.9522,27.65,79,61,1.34,US,1693969273
133,new norfolk,-42.7826,147.0587,15.95,59,100,3.72,AU,1693969274
134,belmonte,-15.8631,-38.8828,22.66,86,24,3.39,BR,1693969274
135,zubova polyana,54.0771,42.8372,15.82,62,100,1.76,RU,1693969274
136,harper,4.375,-7.7169,24.41,86,96,3.53,LR,1693969275
137,vanino,49.0869,140.2543,17.28,71,81,4.59,RU,1693969275
138,flying fish cove,-10.4217,105.6791,25.82,73,75,5.66,CX,1693969275
139,kyaikkami,16.08,97.5675,25.67,91,100,5.56,MM,1693969275
140,punta del este,-34.9667,-54.95,7.76,71,75,2.57,UY,1693969276
141,san fernando de monte cristi,19.8667,-71.65,28.65,72,97,1.45,DO,1693969276
142,kolonia,50.9333,6.95,19.41,75,0,2.06,DE,1693969276
143,road town,18.4167,-64.6167,29.02,70,40,2.57,VG,1693969276
144,whitehorse,60.7161,-135.0538,15.57,52,75,4.12,CA,1693969276
145,dezhou,37.4486,116.2925,30.15,50,0,2.73,CN,1693969277
146,phan rang-thap cham,11.5667,108.9833,31.55,60,100,1.04,VN,1693969277
147,antsiranana,-12.2787,49.2917,21.94,70,0,5.45,MG,1693969277
148,paros,37.0833,25.15,26.28,81,96,5.46,GR,1693969235
149,aleg,17.0481,-13.9209,30.47,59,100,6.53,MR,1693969277
150,mwingi,-0.9344,38.0601,16.93,84,32,1.78,KE,1693969278
151,vernon,50.2581,-119.2691,21.74,43,19,0.51,CA,1693969220
152,alice springs,-23.7,133.8833,29.75,17,12,9.26,AU,1693969278
153,khandyga,62.6667,135.6,15.32,46,100,2.51,RU,1693969278
154,canto do buriti,-8.11,-42.9444,24.27,41,30,1.6,BR,1693969279
155,turtas,58.9417,69.1325,9.25,71,93,3.36,RU,1693969279
156,kodiak,57.79,-152.4072,13.26,80,98,1.71,US,1693969279
157,siler city,35.7235,-79.4622,25.19,97,0,0.0,US,1693969279
158,ahfir,34.9537,-2.1003,19.34,64,16,0.95,MA,1693969280
159,swakopmund,-22.6833,14.5333,9.47,82,71,1.34,NA,1693969286
160,leirvik,59.7798,5.5005,10.9,83,6,1.56,NO,1693969225
161,tolanaro,-25.0319,46.9987,20.04,94,75,3.09,MG,1693969286
162,hinthada,17.6333,95.4667,27.67,82,100,3.72,MM,1693969286
163,hithadhoo,-0.6,73.0833,28.17,72,8,5.78,MV,1693969287
164,bandhi,26.5861,68.3006,30.04,55,0,5.0,PK,1693969287
165,lata,40.1629,-8.3327,17.26,85,76,1.48,PT,1693969288
166,papao,-17.75,-149.55,26.82,93,100,12.29,PF,1693969288
167,naberera,-4.2,36.9333,15.05,85,2,1.39,TZ,1693969288
168,yuzha,56.5831,42.0122,12.51,71,99,2.74,RU,1693969288
169,mana,5.6592,-53.7767,25.63,87,36,3.86,GF,1693969288
170,bodo,67.28,14.405,9.41,89,75,9.77,NO,1693969289
171,ribeira grande,38.5167,-28.7,20.99,85,97,5.81,PT,1693969289
172,baker city,44.7749,-117.8344,19.84,62,0,4.63,US,1693969032
173,fort bragg,35.139,-79.006,27.73,84,0,0.0,US,1693969263
174,ambah,26.7075,78.2261,29.17,65,65,5.49,IN,1693969289
175,ciudad madero,22.2667,-97.8333,30.03,80,3,6.14,MX,1693969023
176,krasnyy yar,46.5331,48.3456,19.98,47,100,4.15,RU,1693969290
177,bandarbeyla,9.4942,50.8122,24.89,83,6,8.1,SO,1693969290
178,qaqortoq,60.7167,-46.0333,5.33,96,89,3.42,GL,1693969291
179,saint-philippe,-21.3585,55.7679,19.77,71,37,4.09,RE,1693969291
180,nar'yan-mar,67.6713,53.087,12.64,96,100,5.08,RU,1693969291
181,cabo san lucas,22.8909,-109.9124,32.01,78,0,3.6,MX,1693968823
182,ust-nera,64.5667,143.2,10.57,48,100,1.66,RU,1693969292
183,daru,-9.0763,143.2092,26.82,77,66,6.17,PG,1693969292
184,sale,34.0389,-6.8166,19.86,100,40,0.0,MA,1693969293
185,laguna larga,-31.7765,-63.801,12.21,42,100,5.39,AR,1693969293
186,dzhalagash,45.0833,64.6667,19.14,39,90,2.86,KZ,1693969293
187,queenstown,-31.8976,26.8753,2.71,61,7,3.53,ZA,1693969248
188,smithers,54.7804,-127.1743,14.18,62,75,1.03,CA,1693969219
189,ciudad sabinas hidalgo,26.5,-100.1667,30.56,51,0,6.61,MX,1693969294
190,mocoreta,-30.6189,-57.9634,9.66,76,4,3.59,AR,1693969294
191,mount gambier,-37.8333,140.7667,18.35,45,5,5.05,AU,1693969254
192,shira,54.4911,89.9531,14.72,59,61,3.36,RU,1693969294
193,sosnovo-ozerskoye,52.5249,111.5418,18.65,61,99,1.79,RU,1693969295
194,pisco,-13.7,-76.2167,18.03,88,0,4.12,PE,1693969295
195,myitkyina,25.3833,97.4,31.46,63,15,0.86,MM,1693969295
196,robertsport,6.7533,-11.3686,26.14,78,95,5.11,LR,1693969295
197,uglegorsk,49.0833,142.0333,17.21,81,43,6.68,RU,1693969296
198,bol,13.4586,14.7147,26.73,78,42,5.72,TD,1693969296
199,bentiu,9.2333,29.8333,21.47,97,100,1.24,SS,1693969296
200,lebu,-37.6167,-73.65,11.6,88,95,2.59,CL,1693969297
201,san julian,21.0167,-102.1667,17.49,60,65,2.3,MX,1693969297
202,dryden,49.7833,-92.7503,13.16,94,100,5.14,CA,1693969297
203,vilyuchinsk,52.9306,158.4028,17.15,66,20,3.25,RU,1693969297
204,ust'-ilimsk,58.0006,102.6619,14.95,57,100,1.45,RU,1693969298
205,zambezi,-13.5432,23.1047,16.41,38,0,2.68,ZM,1693969298
206,alofi,-19.0595,-169.9187,22.94,94,75,2.06,NU,1693969298
207,huancabamba,-5.2386,-79.4506,14.65,91,64,3.5,PE,1693969298
208,qui nhon,13.7667,109.2333,29.69,69,100,2.48,VN,1693969298
209,leeton,-34.5667,146.4,22.16,34,1,3.71,AU,1693969299
210,tvoroyri,61.5556,-6.8111,10.69,85,88,4.11,FO,1693969299
211,ust'-uda,54.1742,103.0304,15.94,77,100,4.81,RU,1693969299
212,sinjai,-5.1241,120.253,29.39,55,38,5.34,ID,1693969299
213,port alfred,-33.5906,26.891,8.99,74,4,1.34,ZA,1693969300
214,jinka,5.65,36.65,18.19,79,93,0.74,ET,1693969300
215,kiunga,-6.1219,141.2906,26.98,85,86,2.48,PG,1693969306
216,tianpeng,30.9866,103.9393,27.26,71,100,1.49,CN,1693969306
217,tyukhtet,56.5389,89.3011,11.91,86,100,3.16,RU,1693969306
218,gadzhiyevo,69.2551,33.3362,6.34,85,100,5.36,RU,1693969307
219,bredasdorp,-34.5322,20.0403,5.28,87,0,3.82,ZA,1693969307
220,oskarshamn,57.2645,16.4484,13.49,93,3,2.87,SE,1693969307
221,palikir - national government center,6.9248,158.1611,28.56,67,97,0.63,FM,1693969307
222,gallipoli,40.4103,26.6708,22.02,81,98,8.2,TR,1693969084
223,sao joao da barra,-21.6403,-41.0511,22.18,84,100,9.38,BR,1693969308
224,newman,37.3138,-121.0208,30.01,39,0,0.89,US,1693969308
225,arraial do cabo,-22.9661,-42.0278,21.29,89,100,10.56,BR,1693969066
226,braslaw,55.644,27.0455,11.47,96,0,2.88,BY,1693969308
227,ambositra,-20.5167,47.25,9.93,92,0,1.37,MG,1693969309
228,pacific grove,36.6177,-121.9166,17.46,86,75,2.57,US,1693969310
229,haiku-pauwela,20.9219,-156.3051,28.06,70,13,4.8,US,1693969315
230,timbuktu,16.7735,-3.0074,30.92,40,10,2.61,ML,1693969316
231,guatrache,-37.6678,-63.5302,9.62,50,100,8.53,AR,1693969316
232,saldanha,-33.0117,17.9442,5.03,70,1,1.09,ZA,1693969317
233,krasnomayskiy,57.6194,34.4099,14.95,78,83,4.84,RU,1693969318
234,sinabang,2.4803,96.3801,25.65,87,100,3.6,ID,1693969318
235,west island,-12.1568,96.8225,25.99,73,100,5.66,CC,1693969318
236,maxixe,-23.8597,35.3472,17.99,81,0,2.64,MZ,1693969318
237,enewetak,11.3474,162.3373,29.21,71,100,4.11,MH,1693969319
238,saint-francois,46.4154,3.9054,15.38,94,0,1.03,FR,1693969319
239,bhimunipatnam,17.8833,83.4333,25.71,89,100,0.8,IN,1693969320
240,puerto baquerizo moreno,-0.9,-89.6,22.81,80,63,5.58,EC,1693969323
241,kargasok,59.0556,80.8572,11.56,97,100,2.72,RU,1693969323
242,emkhomazi,-30.2067,30.7978,15.96,40,89,6.36,ZA,1693969324
243,okha,53.5739,142.9478,14.57,72,62,8.61,RU,1693969324
244,vorgashor,67.5833,63.95,11.3,57,73,3.85,RU,1693969325
245,labrador city,52.9463,-66.9114,14.95,77,0,2.57,CA,1693969325
246,hammerfest,70.6634,23.6821,8.25,81,100,9.77,NO,1693969325
247,amga,60.8953,131.9608,15.65,46,100,2.93,RU,1693969325
248,happy valley-goose bay,53.3168,-60.3315,17.17,59,40,1.54,CA,1693969326
249,lagoa,39.05,-27.9833,21.89,73,61,10.96,PT,1693969326
250,akureyri,65.6835,-18.0878,13.96,58,0,4.63,IS,1693969327
251,nova vicosa,-17.8919,-39.3719,22.84,88,18,3.97,BR,1693969327
252,tofol,5.3248,163.0078,28.66,73,82,5.46,FM,1693969327
253,marquette,46.5333,-87.6335,23.91,84,85,2.24,US,1693969328
254,lospalos,-8.5186,127.0025,25.93,59,9,5.77,TL,1693969328
255,mar del plata,-38.0023,-57.5575,7.71,72,0,2.24,AR,1693969237
256,villa huidobro,-34.8383,-64.5869,10.95,58,99,8.06,AR,1693969328
257,nenjiang,49.1833,125.2167,20.94,58,6,2.09,CN,1693969329
258,aromashevo,56.8602,68.6375,10.2,74,100,4.76,RU,1693969329
259,pointe michel,15.25,-61.3833,28.42,71,100,4.4,DM,1693969329
260,kabalo,-6.05,26.9167,22.85,80,3,1.51,CD,1693969329
261,luderitz,-26.6481,15.1594,11.87,55,86,6.3,NA,1693969333
262,kailua-kona,19.6406,-155.9956,29.72,79,50,1.34,US,1693969333
263,tchintabaraden,15.8969,5.7985,29.87,54,19,6.81,NE,1693969334
264,puerto rico,-26.796,-55.024,13.14,96,21,0.86,AR,1693969178
265,yuncheng,35.0231,110.9928,29.38,49,8,8.83,CN,1693969334
266,shiqian,27.5225,108.2281,27.76,62,7,2.49,CN,1693969334
267,changchun,43.88,125.3228,23.98,55,2,2.49,CN,1693969334
268,lorengau,-2.0226,147.2712,29.44,70,57,3.74,PG,1693969335
269,anadyr,64.75,177.4833,8.28,52,75,10.0,RU,1693969335
270,winnipeg,49.8844,-97.147,14.99,68,40,5.14,CA,1693968643
271,moroni,-11.7022,43.2551,23.97,71,5,1.39,KM,1693969335
272,san patricio,28.017,-97.5169,30.92,71,0,5.51,US,1693969335
273,kosh-agach,50.0,88.6667,9.04,51,79,0.77,RU,1693969336
274,streator,41.1209,-88.8354,24.44,89,76,0.89,US,1693969336
275,udachny,66.4167,112.4,0.25,100,99,6.77,RU,1693969336
276,hidrolandia,-4.4081,-40.4378,23.98,63,85,2.1,BR,1693969337
277,uturoa,-16.7333,-151.4333,24.84,84,94,10.73,PF,1693969337
278,paita,-5.0892,-81.1144,20.06,84,50,5.84,PE,1693969337
279,tazovsky,67.4667,78.7,7.36,76,11,2.72,RU,1693969337
280,manokwari,-0.8667,134.0833,27.21,79,23,1.24,ID,1693969338
281,puerto santa,-8.9906,-78.6456,19.4,83,40,4.78,PE,1693969338
282,sidi ifni,29.3797,-10.173,20.55,78,84,2.5,MA,1693969338
283,recani,31.2846,-4.2688,26.92,24,31,3.69,MA,1693969338
284,karratha,-20.7377,116.8463,25.48,32,19,1.78,AU,1693969338
285,takoradi,4.8845,-1.7554,23.69,92,90,2.62,GH,1693969338
286,pechory,57.8164,27.6119,15.7,85,81,4.31,RU,1693969339
287,megion,61.0296,76.1136,7.01,68,99,5.29,RU,1693969339
288,margate,51.3813,1.3862,18.5,96,4,1.34,GB,1693969339
289,yaren,-0.5472,166.916,29.27,74,68,7.32,NR,1693969340
290,challapata,-18.9,-66.7667,8.82,42,100,3.15,BO,1693969340
291,rongelap,11.1635,166.8941,28.13,78,93,4.73,MH,1693969340
292,vila velha,-20.3297,-40.2925,24.97,87,75,3.6,BR,1693969226
293,lumphat,13.4878,106.9816,26.24,94,100,1.16,KH,1693969341
294,mil'kovo,55.6078,37.7956,14.22,77,97,4.1,RU,1693969341
295,colares,38.7992,-9.4469,19.55,86,14,12.52,PT,1693969341
296,brokopondo,4.75,-55.1667,25.87,78,14,4.51,SR,1693969341
297,fort st. john,56.2499,-120.8529,12.94,50,75,3.6,CA,1693969253
298,grand baie,-20.0182,57.5802,21.26,76,2,1.34,MU,1693969263
299,sao jose da coroa grande,-8.8978,-35.1478,23.55,83,2,3.82,BR,1693969342
300,smirnovo,54.5125,69.4222,8.01,84,100,4.08,KZ,1693969342
301,kharkhorin,47.1975,102.8238,22.82,39,100,4.64,MN,1693969342
302,kanniyakumari,8.0833,77.5667,25.98,82,100,6.48,IN,1693969342
303,passagem franca,-6.1797,-43.7836,24.03,37,0,1.72,BR,1693969343
304,kerikeri,-35.2268,173.9474,20.51,85,23,2.24,NZ,1693969343
305,axim,4.8699,-2.2405,23.8,92,63,2.68,GH,1693969343
306,dakhla,23.6848,-15.958,21.06,85,85,7.66,EH,1693969343
307,falam,22.9167,93.6833,20.12,90,100,1.31,MM,1693969344
308,apple valley,34.5008,-117.1859,24.39,55,0,4.75,US,1693969051
309,mildura,-34.2,142.15,22.82,35,5,7.03,AU,1693969344
310,richards bay,-28.783,32.0377,18.92,51,100,7.01,ZA,1693969344
311,sur,22.5667,59.5289,29.39,65,6,1.68,OM,1693969344
312,port shepstone,-30.7414,30.455,15.36,39,2,7.67,ZA,1693969345
313,barcelos,41.5388,-8.6151,20.47,85,99,1.43,PT,1693969345
314,king city,36.2127,-121.126,16.46,51,0,2.81,US,1693969345
315,san mariano,7.5,126.0,27.22,83,100,1.03,PH,1693969345
316,preobrazheniye,42.9019,133.9064,23.95,47,0,0.25,RU,1693969345
317,tromso,69.6496,18.957,8.01,81,100,3.6,NO,1693969346
318,iskateley,67.6803,53.1512,12.6,96,100,5.06,RU,1693969346
319,pahrump,36.2083,-115.9839,28.47,31,0,0.89,US,1693969346
320,hammamet,36.4,10.6167,22.92,66,0,8.03,TN,1693969347
321,balsas,-7.5325,-46.0356,25.57,30,17,1.59,BR,1693969233
322,strezhevoy,60.7333,77.5889,9.42,70,100,1.34,RU,1693969347
323,labytnangi,66.6572,66.4183,9.67,67,89,2.3,RU,1693969347
324,cadale,2.7603,46.3222,25.19,89,28,8.59,SO,1693969347
325,la passe,45.5549,-0.8967,22.13,63,3,3.98,FR,1693969348
326,al bawiti,28.3492,28.8659,26.47,30,0,1.82,EG,1693969348
327,pochinok,54.4068,32.4407,15.14,71,97,4.28,RU,1693969348
328,yuzhno-kurilsk,44.0306,145.8556,19.52,89,100,2.53,RU,1693969348
329,ometepec,16.6833,-98.4167,22.96,97,100,1.0,MX,1693969349
330,farasan,16.7022,42.1183,31.49,79,10,6.69,SA,1693969349
331,chinchilla,-26.75,150.6333,28.15,31,5,3.19,AU,1693969349
332,broome,42.2506,-75.833,23.68,85,3,0.72,US,1693969350
333,taro,-8.3862,115.28,23.0,75,78,2.08,ID,1693969350
334,pankovka,58.5,31.1999,15.12,82,100,5.12,RU,1693969350
335,christchurch,-43.5333,172.6333,17.73,48,100,7.2,NZ,1693969061
336,cheria,35.2731,7.7519,16.12,49,0,3.75,DZ,1693969351
337,coahuayana de hidalgo,18.7,-103.6583,26.34,89,97,2.35,MX,1693969351
338,latur,18.4,76.5833,24.68,79,98,5.69,IN,1693969351
339,alcudia,39.8532,3.1214,24.03,67,9,2.73,ES,1693969351
340,charters towers,-20.1,146.2667,30.33,19,0,6.9,AU,1693969352
341,mel'nikovo,56.5558,84.085,10.14,76,100,4.76,RU,1693969352
342,aasiaat,68.7098,-52.8699,3.13,98,100,3.24,GL,1693969352
343,vel'sk,61.0701,42.0983,13.81,85,94,4.89,RU,1693969352
344,tupa,-21.9347,-50.5136,23.0,64,33,5.59,BR,1693969352
345,east london,-33.0153,27.9116,13.45,55,0,6.64,ZA,1693969263
346,ostersund,63.1792,14.6357,9.25,81,75,8.75,SE,1693969353
347,andergrove,-21.0833,149.1833,28.14,60,0,4.45,AU,1693969353
348,suhbaatar,50.2314,106.2078,24.02,59,99,3.12,MN,1693969353
349,konarka,19.9,86.1167,27.22,81,98,2.93,IN,1693969353
350,coron,11.9986,120.2043,30.24,70,52,2.62,PH,1693969354
351,yanam,16.7333,82.2167,24.65,96,100,3.81,IN,1693969354
352,ust-tsilma,65.441,52.1498,13.72,82,98,4.6,RU,1693969354
353,brezina,33.0989,1.2608,28.38,22,21,3.15,DZ,1693969354
354,neiafu,-18.65,-173.9833,25.38,73,40,3.09,TO,1693969355
355,ilha de mocambique,-15.0342,40.7358,22.75,85,0,2.0,MZ,1693969355
356,laharpur,27.7167,80.9,26.91,67,100,1.75,IN,1693969355
357,boquira,-12.8231,-42.7306,23.06,62,0,3.19,BR,1693969356
358,tarawa,1.419,172.984,32.05,66,20,2.57,KI,1693969356
359,porto novo,6.4965,2.6036,23.45,94,100,2.02,BJ,1693969356
360,kodinsk,58.6881,99.1844,11.9,79,100,2.32,RU,1693969357
361,sovetskaya gavan',48.9723,140.2878,17.11,74,63,6.25,RU,1693969357
362,san rafael,-34.6177,-68.3301,13.68,51,97,4.53,AR,1693969357
363,chitipa,-9.7024,33.2697,15.2,77,0,2.24,MW,1693969357
364,arar,30.9753,41.0381,30.01,10,0,2.57,SA,1693969358
365,semnan,35.5729,53.3971,27.55,31,0,1.7,IR,1693969358
366,saynshand,44.8824,110.1163,29.09,22,82,6.07,MN,1693969358
367,camayenne,9.535,-13.6878,26.05,89,75,3.09,GN,1693969359
368,oranjemund,-28.55,16.4333,10.06,52,97,5.52,NA,1693969359
369,hailey,43.5196,-114.3153,13.78,71,0,3.6,US,1693969359
370,shimoda,34.6667,138.95,28.2,83,99,5.48,JP,1693969359
371,gao,16.6362,1.637,29.2,50,0,3.45,ML,1693969359
372,mogocha,53.7333,119.7667,11.61,93,100,1.87,RU,1693969360
373,san luis de la loma,17.2706,-100.8939,26.14,88,100,2.29,MX,1693969360
374,aldan,58.6031,125.3894,11.16,71,84,3.42,RU,1693969363
375,colonia,50.9333,6.95,19.41,75,0,2.06,DE,1693969338
376,santo antonio do ica,-3.1022,-67.9397,25.69,49,6,1.0,BR,1693969314
377,norfolk,42.1668,-71.2495,24.78,92,20,0.0,US,1693969364
378,fochville,-26.4886,27.4939,7.49,39,83,1.66,ZA,1693969364
379,freetown,8.484,-13.2299,24.84,84,100,3.61,SL,1693969215
380,sangre grande,10.5835,-61.1177,26.07,87,19,3.28,TT,1693969365
381,sittwe,20.15,92.9,26.43,93,100,6.31,MM,1693969365
382,esqueda,30.7167,-109.5833,25.73,26,0,3.12,MX,1693969365
383,nuuk,64.1835,-51.7216,5.34,100,100,10.29,GL,1693969365
384,as sulayyil,20.4607,45.5779,31.14,26,71,2.86,SA,1693969366
385,noshiro,40.2039,140.0242,26.46,82,100,0.18,JP,1693969366
386,lautoka,-17.6167,177.4667,28.92,54,40,6.17,FJ,1693969366
387,tidjikja,18.5564,-11.4271,29.86,54,64,3.41,MR,1693969366
388,puerto san jose,13.9256,-90.8244,26.78,80,73,1.93,GT,1693969367
389,fuglafjordur,62.244,-6.814,10.26,81,82,2.95,FO,1693969367
390,tual,-5.6667,132.75,25.05,82,68,7.22,ID,1693969367
391,irymple,-34.25,142.1667,22.83,35,7,0.89,AU,1693969367
392,kalmunai,7.4167,81.8167,28.56,65,100,4.59,LK,1693969368
393,decorah,43.3033,-91.7857,24.59,100,75,2.06,US,1693969368
394,ribeira brava,32.65,-17.0667,25.0,84,100,3.11,PT,1693969368
395,prado,-17.3411,-39.2208,22.31,89,9,2.6,BR,1693969242
396,luga,58.7372,29.8453,11.53,79,68,4.57,RU,1693969369
397,muynoq,43.7683,59.0214,19.99,50,52,2.54,UZ,1693969369
398,summerland,49.5998,-119.6691,22.77,44,40,5.14,CA,1693969369
399,winslow,35.0242,-110.6974,23.1,23,0,4.12,US,1693969295
400,millbrook,32.4799,-86.3619,25.04,83,0,0.0,US,1693969369
401,mersing,2.4312,103.8405,25.95,89,20,2.57,MY,1693969369
402,trinidad,-14.8333,-64.9,27.15,58,100,0.95,BO,1693969370
403,mesyagutovo,55.5303,58.2528,10.16,76,1,1.01,RU,1693969370
404,okhotsk,59.3833,143.3,9.91,85,100,9.65,RU,1693969370
405,zapolyarnyy,69.4154,30.8136,4.6,84,44,2.0,RU,1693969371
406,greymouth,-42.4667,171.2,13.03,88,96,3.73,NZ,1693969371
407,salinopolis,-0.6136,-47.3561,26.54,77,3,4.65,BR,1693969371
408,zhalantun,48.0,122.7167,22.83,59,23,0.51,CN,1693969372
409,kyzyl-mazhalyk,51.1333,90.6,12.5,75,90,0.49,RU,1693969372
410,constantia,44.1833,28.65,20.39,62,41,5.17,RO,1693969206
411,whakatane,-37.9585,176.9854,16.54,98,95,3.13,NZ,1693969373
412,port douglas,-16.4833,145.4667,24.61,67,5,4.8,AU,1693969373
413,port-gentil,-0.7193,8.7815,23.8,87,100,4.95,GA,1693969373
414,coro,11.4045,-69.6734,27.11,85,66,6.6,VE,1693969373
415,tindouf,27.6711,-8.1474,27.25,22,0,2.06,DZ,1693969373
416,susuman,62.7833,148.1667,11.8,39,92,0.88,RU,1693969374
417,berezovyy,51.6667,135.7,20.53,35,72,1.26,RU,1693969374
418,anloga,5.7947,0.8973,24.67,89,84,4.41,GH,1693969374
419,ta`u,-14.2336,-169.5144,27.32,66,50,6.45,AS,1693969374
420,bonthe,7.5264,-12.505,25.46,83,100,3.58,SL,1693969375
421,bardai,11.65,7.2333,22.23,82,97,2.87,NG,1693969375
422,cole harbour,44.6724,-63.4751,19.98,90,20,7.72,CA,1693969375
423,tynda,55.1667,124.7167,16.01,48,100,2.49,RU,1693969375
424,balabac,7.9868,117.0645,29.54,76,65,5.13,PH,1693969375
425,cafayate,-26.073,-65.9761,10.98,70,68,1.59,AR,1693969375
426,los llanos de aridane,28.6585,-17.9182,19.86,77,0,1.79,ES,1693969376
427,campo mourao,-24.0456,-52.3831,17.76,71,99,2.03,BR,1693969376
428,pathein,16.7833,94.7333,27.19,84,99,2.88,MM,1693969377
429,laojunmiao,39.8333,97.7333,18.39,44,92,7.77,CN,1693969377
430,terme,41.2092,36.9739,23.96,87,99,1.16,TR,1693969377
431,zhaotong,27.3167,103.7167,22.37,67,10,1.14,CN,1693969377
432,mili,6.0815,171.735,28.98,75,29,4.99,MH,1693969377
433,vite,17.2833,74.55,23.19,80,51,4.1,IN,1693969378
434,cabedelo,-6.9811,-34.8339,23.37,84,25,3.61,BR,1693969225
435,osprey,27.1962,-82.4904,29.01,69,100,2.57,US,1693969378
436,cozumel,20.5083,-86.9458,25.53,95,12,4.8,MX,1693969378
437,kayangel,8.0823,134.7173,28.15,79,98,3.29,PW,1693969379
438,kone,-21.0595,164.8658,26.15,62,100,2.7,NC,1693969379
439,keetmanshoop,-26.5833,18.1333,7.51,53,45,5.14,NA,1693969379
440,ust'-kulom,61.6864,53.6902,11.51,97,65,1.85,RU,1693969379
441,santa ana,33.7456,-117.8678,22.89,79,100,3.6,US,1693969340
442,ambovombe,-25.1667,46.0833,19.06,70,0,3.02,MG,1693969380
443,samarkand,39.6542,66.9597,17.68,39,4,5.14,UZ,1693969215
444,douz,33.4663,9.0203,22.89,57,2,4.97,TN,1693969385
445,jiazi,22.8779,116.067,26.46,89,100,2.22,CN,1693969385
446,waat,51.1454,6.4958,18.21,87,29,2.57,DE,1693969386
447,monteria,8.748,-75.8814,27.95,89,20,1.03,CO,1693969331
448,guerrero negro,27.9769,-114.0611,20.9,75,0,7.19,MX,1693969386
449,san agustin de valle fertil,-30.6335,-67.4682,11.77,79,100,3.6,AR,1693969387
450,manay,7.215,126.5397,28.49,78,100,2.07,PH,1693969387
451,pemangkat,1.1667,108.9667,26.93,78,100,1.63,ID,1693969387
452,saudarkrokur,65.7461,-19.6394,11.76,81,97,10.34,IS,1693969387
453,hilo,19.7297,-155.09,27.93,80,75,3.09,US,1693969388
454,ambalangoda,6.2355,80.0538,28.03,80,96,5.5,LK,1693969388
455,isangel,-19.55,169.2667,25.06,69,75,2.57,VU,1693969388
456,bay roberts,47.5999,-53.2648,15.74,97,97,0.49,CA,1693969389
457,carora,10.1755,-70.0827,27.07,62,4,4.1,VE,1693969389
458,quincy-voisins,48.9011,2.8756,22.29,82,30,1.29,FR,1693969389
459,labasa,-16.4167,179.3833,27.34,61,69,4.65,FJ,1693969390
460,nova olimpia,-14.7972,-57.2881,26.08,67,78,1.36,BR,1693969161
461,san justo,-30.7891,-60.5919,7.77,81,85,0.89,AR,1693969396
462,gwarzo,11.9152,7.9346,22.07,83,39,3.24,NG,1693969396
463,silver springs,29.1044,-82.0206,26.67,84,82,2.5,US,1693969396
464,rikaze,29.25,88.8833,14.37,39,7,1.89,CN,1693969397
465,el nido,11.1858,119.3956,29.66,71,96,0.87,PH,1693969397
466,genhe,50.7833,121.5167,19.43,49,77,3.46,CN,1693969397
467,tsetserleg,47.475,101.4542,19.76,46,100,0.9,MN,1693969398
468,thunder bay,48.4001,-89.3168,19.99,94,100,5.14,CA,1693969398
469,acala,16.5667,-92.8,22.12,95,72,1.87,MX,1693969398
470,santa luzia,-19.7697,-43.8514,22.5,83,75,4.63,BR,1693969292
471,zhangye,38.9342,100.4517,26.68,26,32,12.34,CN,1693969399
472,darab,28.7519,54.5444,28.52,13,0,3.03,IR,1693969399
473,fort mcmurray,56.7268,-111.381,13.73,50,20,3.09,CA,1693969258
474,labuan,5.2767,115.2417,30.2,74,20,1.54,MY,1693969399
475,masterton,-40.9597,175.6575,15.49,62,32,3.59,NZ,1693969399
476,viqueque,-8.8673,126.3658,28.49,51,7,3.4,TL,1693969400
477,chernyshevskiy,63.0128,112.4714,4.08,46,13,2.85,RU,1693969400
478,outokumpu,62.7269,29.0159,8.94,91,49,5.09,FI,1693969404
479,trujillo,-8.116,-79.03,19.98,83,22,3.6,PE,1693969227
480,makurazaki,31.2667,130.3167,27.29,75,89,3.26,JP,1693969404
481,visby,57.6409,18.296,16.13,94,100,4.63,SE,1693969136
482,nemuro,43.3236,145.575,17.36,98,100,4.85,JP,1693969405
483,diplo,24.4667,69.584,28.38,65,1,5.47,PK,1693969405
484,dongobesh,-4.0667,35.3833,12.97,78,42,1.78,TZ,1693969405
485,trabzon,40.9167,39.8333,22.05,78,75,1.54,TR,1693969406
486,iskushuban,10.2837,50.23,29.0,44,100,4.11,SO,1693969406
487,taoudenni,22.6783,-3.9836,32.14,43,92,2.81,ML,1693969406
488,azadshahr,34.7909,48.5707,15.27,21,0,2.06,IR,1693969406
489,center,31.5107,-96.4247,32.03,53,0,3.09,US,1693969407
490,abalak,58.1286,68.5944,7.41,81,100,3.49,RU,1693969407
491,brumado,-14.2036,-41.6653,23.73,68,87,5.7,BR,1693969225
492,show low,34.2542,-110.0298,19.45,36,0,2.57,US,1693969407
493,valle de la pascua,9.2155,-66.0073,26.18,72,85,1.71,VE,1693969407
494,mahanje,-9.9333,35.3333,14.78,71,0,1.26,TZ,1693969407
495,barrouallie,13.2333,-61.2667,27.79,84,20,4.63,VC,1693969408
496,blackwater,-23.5833,148.8833,28.72,43,1,4.95,AU,1693969252
497,albu kamal,34.45,40.9186,29.68,35,0,4.61,SY,1693969408
498,houlton,46.1262,-67.8403,20.9,98,0,0.0,US,1693969408
499,terrace,54.5163,-128.6035,13.95,76,75,6.17,CA,1693969408
500,awjilah,29.1081,21.2869,24.07,51,0,3.36,LY,1693969409
501,port augusta,-32.5,137.7667,23.94,22,0,9.45,AU,1693969409
502,selfoss,63.9331,-20.9971,11.58,92,100,5.86,IS,1693969409
503,lluta,-16.0147,-72.0142,12.79,32,100,0.46,PE,1693969409
504,taghazout,30.5426,-9.7112,18.43,79,98,1.58,MA,1693969410
505,inhambane,-23.865,35.3833,18.5,80,0,2.91,MZ,1693969413
506,barrancas,10.9576,-72.7877,25.11,88,98,1.38,CO,1693969413
507,aral,40.5156,81.2636,24.35,17,0,4.21,CN,1693969414
508,tralee,52.2704,-9.7026,15.44,97,92,2.79,IE,1693969414
509,shenjiamen,29.9576,122.298,26.87,82,100,5.12,CN,1693969414
510,ma'rib,15.4591,45.3253,27.01,33,51,2.92,YE,1693969415
511,yinchuan,38.4681,106.2731,26.33,38,82,6.99,CN,1693969415
512,fortuna,40.5982,-124.1573,15.52,83,0,4.63,US,1693969415
513,gannan,47.9147,123.5031,22.91,54,13,0.75,CN,1693969415
514,khovd,48.0056,91.6419,16.03,27,0,0.48,MN,1693969415
515,vadso,70.0744,29.7487,5.49,81,0,4.12,NO,1693969399
516,lagunillas,10.1301,-71.2595,27.85,75,3,0.81,VE,1693969416
517,kavieng,-2.5744,150.7967,29.05,71,63,2.9,PG,1693969417
518,penalva,-3.2942,-45.1736,23.64,88,4,2.54,BR,1693969417
519,puerto madero,14.7208,-92.4215,24.11,100,75,0.0,MX,1693969417
520,progreso,21.2833,-89.6667,29.06,83,8,5.71,MX,1693969417
521,souillac,-20.5167,57.5167,21.21,78,40,1.03,MU,1693969417
522,beni mellal,32.3373,-6.3498,22.56,51,100,1.37,MA,1693969418
523,morinville,53.8001,-113.652,10.49,95,100,2.06,CA,1693969237
524,altay,47.8667,88.1167,16.45,38,10,2.42,CN,1693969418
525,caleta de carquin,-11.0925,-77.6267,19.36,81,71,3.98,PE,1693969418
526,bodaybo,57.8506,114.1933,17.59,53,14,2.01,RU,1693969418
527,deqen,29.9618,90.7188,13.71,55,2,2.66,CN,1693969419
528,sen monorom,12.45,107.2,24.78,81,98,1.23,KH,1693969419
529,ebon,4.582,168.6964,28.67,76,82,5.71,MH,1693969419
530,garhi khairo,28.0606,67.9803,31.34,50,0,3.79,PK,1693969419
531,hinton,53.4001,-117.5857,8.56,94,99,0.63,CA,1693969270
532,summerside,46.3959,-63.7876,18.71,94,44,6.17,CA,1693969203
533,tuzantla,19.2029,-100.5668,24.88,98,100,1.23,MX,1693969420
534,sabang,5.8933,95.3214,27.98,74,96,2.5,ID,1693969426
535,brikama,13.2714,-16.6494,25.02,94,75,3.09,GM,1693969426
536,berdigestyakh,62.0989,126.6992,4.08,93,100,3.65,RU,1693969426
537,sungai raya,0.7,108.9,26.63,82,96,2.71,ID,1693969426
538,yung shue wan,22.2333,114.1167,31.49,70,91,0.45,HK,1693969426
539,kurchatov,51.6601,35.6521,10.23,69,55,1.6,RU,1693969427
540,zelenoborskiy,66.845,32.3622,6.48,84,100,2.94,RU,1693969427
541,fenghuang,27.9356,109.5996,25.88,67,92,2.67,CN,1693969427
542,planaltina,-15.4528,-47.6142,23.97,52,72,1.28,BR,1693969427
543,yuanlin,30.4151,112.8859,28.66,73,43,4.5,CN,1693969427
544,usevia,-7.1,31.2333,21.85,60,13,1.23,TZ,1693969428
545,nagqu,31.5,92.0,11.17,45,40,4.49,CN,1693969428
546,diego de almagro,-26.3667,-70.05,15.01,35,72,0.52,CL,1693969428
547,broken hill,-31.95,141.4333,21.35,19,0,7.51,AU,1693969352
548,las heras,-46.5419,-68.9359,3.58,83,82,10.64,AR,1693969428
549,surgut,61.25,73.4167,7.73,87,0,3.0,RU,1693969428
550,cherryville,53.1569,-6.9667,15.46,93,53,2.22,IE,1693969429
551,kenai,60.5544,-151.2583,11.16,91,100,8.23,US,1693969429
552,an nuhud,12.7,28.4333,24.97,71,100,2.28,SD,1693969430
553,sillamae,59.3997,27.7547,13.6,66,2,8.09,EE,1693969430
554,chongjin,41.7956,129.7758,23.98,62,0,2.23,KP,1693969430
555,arkhangel'sk,64.5401,40.5433,9.96,95,100,2.36,RU,1693969431
556,chibougamau,49.9168,-74.3659,20.79,78,0,3.09,CA,1693969431
557,pedernales,18.0384,-71.744,27.84,77,100,2.21,DO,1693969431
558,stavrovo,56.1331,40.013,12.03,80,100,3.73,RU,1693969431
559,qarqaraly,49.4058,75.4742,8.2,71,56,4.92,KZ,1693969431
560,hirara,24.8,125.2833,29.92,65,75,2.57,JP,1693969432
561,juneau,58.3019,-134.4197,13.39,100,44,0.62,US,1693969286
562,"laikit, laikit ii (dimembe)",1.4792,124.9735,31.47,52,40,4.12,ID,1693969432
563,salacgriva,57.7536,24.3581,14.43,72,83,4.15,LV,1693969432
564,hengchun,22.0042,120.7439,28.03,82,100,2.3,TW,1693969433
565,zhigalovo,54.8097,105.1578,14.78,87,100,0.64,RU,1693969433
566,dokkum,53.3222,5.997,18.88,93,15,2.06,NL,1693969433
567,taltal,-25.4,-70.4833,17.41,66,56,1.37,CL,1693969434
568,sao vicente,-23.9631,-46.3919,21.1,26,100,0.89,BR,1693969332
569,praia da vitoria,38.7333,-27.0667,21.14,88,40,10.42,PT,1693969434
570,reguengos de monsaraz,38.4253,-7.5349,18.32,82,12,0.86,PT,1693969434
571,zapata,26.9073,-99.2714,34.06,38,0,4.63,US,1693969168
572,menongue,-14.6585,17.691,15.02,29,0,1.85,AO,1693969435
573,fish town,5.1964,-7.8756,21.06,99,74,1.17,LR,1693969435
574,buturlino,55.5667,44.8974,14.56,75,58,2.44,RU,1693969435
575,kalawit,8.0667,122.5167,29.75,71,100,1.77,PH,1693969436
576,santa cruz,-17.8,-63.1667,22.7,49,75,5.66,BO,1693969157
577,inarajan village,13.2736,144.7484,28.08,92,100,0.83,GU,1693969436
578,itaituba,-4.2761,-55.9836,26.86,56,25,0.14,BR,1693969220
579,tadmur,34.5608,38.2805,24.93,55,0,3.92,SY,1693969436
580,manjeshvar,12.7,74.8833,26.66,87,100,2.12,IN,1693969437
581,kapa'a,22.0752,-159.319,28.99,77,20,4.12,US,1693969437
582,basco,20.4487,121.9702,27.84,85,100,5.97,PH,1693969437
583,jayapura,-2.5333,140.7,34.66,70,32,2.6,ID,1693969437
584,balqash,46.8481,74.995,13.33,82,0,3.0,KZ,1693969437
585,newbiggin-by-the-sea,55.1853,-1.5147,16.66,97,100,0.51,GB,1693969438
586,tarko-sale,64.9225,77.785,9.44,57,55,3.58,RU,1693969438
587,christiansburg,37.1298,-80.4089,24.21,87,0,0.0,US,1693969438
588,ferkessedougou,9.6,-5.2,22.29,97,100,1.95,CI,1693969344
589,koulamoutou,-1.1303,12.4736,22.01,92,99,0.42,GA,1693969439
590,kruisfontein,-34.0033,24.7314,6.54,77,2,3.59,ZA,1693969439
591,quezon,7.7303,125.0989,29.93,65,100,0.91,PH,1693969439
592,santiago,-33.4569,-70.6483,15.1,82,100,0.51,CL,1693969046
593,bad neustadt an der saale,50.3333,10.2167,16.16,74,26,0.98,DE,1693969440
594,copiapo,-27.3667,-70.3333,11.83,54,96,0.24,CL,1693969238
